[
 {
  "id": "tkc",
  "name": "Kolej Tunku Kurshiah",
  "acronym": "TKC",
  "type": "SBP",
  "program": "SMS",
  "jantina": "P",
  "hot": 1,
  "kemasukan": "1,4",
  "phone": "iPad",
  "ads": true,
  "founded": 1947,
  "negeri": "Negeri Sembilan",
  "calon2021": 137,
  "purata": 1.294,
  "lat": 2.729322,
  "lng": 101.792861,
  "gps": {
   "2025": 1.69,
   "2024": 1.05,
   "2023": 1.25
  },
  "pin": "TKC"
 },
 {
  "id": "sgs",
  "name": "SMS Tuanku Aishah Rohani",
  "acronym": "SGS",
  "type": "SBP",
  "program": "SMS",
  "jantina": "P",
  "hot": 1,
  "kemasukan": "1,4",
  "phone": "—",
  "ads": false,
  "founded": 2013,
  "negeri": "Negeri Sembilan",
  "calon2021": 116,
  "purata": 1.497,
  "lat": 2.736566,
  "lng": 101.951913,
  "gps": {
   "2025": 1.66,
   "2024": 1.34,
   "2023": 1.4
  },
  "pin": "SGS"
 },
 {
  "id": "smaplabu",
  "name": "SMAP Labu",
  "acronym": "SMAP Labu",
  "type": "SBP",
  "program": "SMAP",
  "jantina": "LP",
  "hot": 2,
  "kemasukan": "1,4",
  "phone": "—",
  "ads": false,
  "founded": 1982,
  "negeri": "Negeri Sembilan",
  "calon2021": 134,
  "purata": 1.891,
  "lat": 2.742045,
  "lng": 101.860797,
  "gps": {
   "2025": 2.26,
   "2024": 1.7,
   "2023": 1.97
  },
  "pin": "SMAP Labu"
 },
 {
  "id": "mrsmgemencheh",
  "name": "MRSM Gemencheh",
  "acronym": "MRSM Gemencheh",
  "type": "MRSM",
  "program": "U. Albab",
  "jantina": "LP",
  "hot": "MRSM",
  "kemasukan": "1,4",
  "phone": "BP",
  "ads": false,
  "founded": 2007,
  "negeri": "Negeri Sembilan",
  "calon2021": 170,
  "purata": 2.0,
  "lat": 2.580803,
  "lng": 102.478673,
  "gps": {
   "2025": 1.195,
   "2024": 1.411,
   "2023": 2.184
  },
  "pin": "MRSM Gemencheh"
 },
 {
  "id": "semesra",
  "name": "SMS Rembau",
  "acronym": "SEMESRA",
  "type": "SBP",
  "program": "SMS",
  "jantina": "LP",
  "hot": 3,
  "kemasukan": "1,4",
  "phone": "—",
  "ads": false,
  "founded": 2009,
  "negeri": "Negeri Sembilan",
  "calon2021": 163,
  "purata": 2.01,
  "lat": 2.524755,
  "lng": 102.048137,
  "gps": {
   "2025": 2.33,
   "2024": 1.88,
   "2023": 2.03
  },
  "pin": "SEMESRA"
 },
 {
  "id": "stj",
  "name": "SMS Tuanku Jaafar",
  "acronym": "STJ",
  "type": "SBP",
  "program": "SMS",
  "jantina": "LP",
  "hot": 3,
  "kemasukan": "1,4",
  "phone": "—",
  "ads": false,
  "founded": 1975,
  "negeri": "Negeri Sembilan",
  "calon2021": 138,
  "purata": 2.075,
  "lat": 2.756844,
  "lng": 102.244743,
  "gps": {
   "2025": 2.15,
   "2024": 2.04,
   "2023": 2.06
  },
  "pin": "STJ"
 },
 {
  "id": "intej",
  "name": "SBP Integrasi Jempol",
  "acronym": "INTEJ",
  "type": "SBP",
  "program": "SBPI",
  "jantina": "LP",
  "hot": 3,
  "kemasukan": "1,4",
  "phone": "—",
  "ads": false,
  "founded": 2002,
  "negeri": "Negeri Sembilan",
  "calon2021": 91,
  "purata": 2.314,
  "lat": 2.824069,
  "lng": 102.320019,
  "gps": {
   "2025": 2.51,
   "2024": 2.06,
   "2023": 2.11
  },
  "pin": "INTEJ"
 },
 {
  "id": "mrsmkualaklawang",
  "name": "MRSM Kuala Klawang",
  "acronym": "MRSM Kuala Klawang",
  "type": "MRSM",
  "program": "IGCSE",
  "jantina": "LP",
  "hot": "MRSM",
  "kemasukan": "1,4",
  "phone": "SP",
  "ads": false,
  "founded": 1987,
  "negeri": "Negeri Sembilan",
  "calon2021": 118,
  "purata": 2.346,
  "lat": 2.979754,
  "lng": 102.062645,
  "gps": {
   "2025": 1.929,
   "2024": 1.974,
   "2023": 2.794
  },
  "pin": "MRSM KK"
 },
 {
  "id": "mrsmserting",
  "name": "MRSM Serting",
  "acronym": "MRSM Serting",
  "type": "MRSM",
  "program": "STEM Excel",
  "jantina": "LP",
  "hot": "MRSM",
  "kemasukan": "1,4",
  "phone": "BP F1-3, SP F4,5",
  "ads": false,
  "founded": 1993,
  "negeri": "Negeri Sembilan",
  "calon2021": 122,
  "purata": 2.395,
  "lat": 2.906994,
  "lng": 102.40427,
  "gps": {
   "2025": 2.415,
   "2024": 1.91,
   "2023": 2.864
  },
  "pin": "MRSM Serting"
 },
 {
  "id": "sesta",
  "name": "SMS Tapah",
  "acronym": "SESTA",
  "type": "SBP",
  "program": "SMS",
  "jantina": "LP",
  "hot": 3,
  "kemasukan": "1,4",
  "phone": "—",
  "ads": false,
  "founded": 2009,
  "negeri": "Perak",
  "calon2021": 137,
  "purata": 2.045,
  "lat": 2.906994,
  "lng": 102.40427,
  "gps": {
   "2025": 2.18,
   "2024": 1.7,
   "2023": 1.98
  },
  "pin": "SESTA"
 },
 {
  "id": "mrsmbagandatuk",
  "name": "MRSM Bagan Datuk",
  "acronym": "MRSM Bagan Datuk",
  "type": "MRSM",
  "program": "U. Albab",
  "jantina": "LP",
  "hot": "MRSM",
  "kemasukan": "1,4",
  "phone": "BP",
  "ads": false,
  "founded": 2021,
  "negeri": "Perak",
  "calon2021": 120,
  "purata": 2.131,
  "lat": 3.967963,
  "lng": 100.786514,
  "gps": {
   "2025": 1.732,
   "2024": 2.195,
   "2023": 2.278
  },
  "pin": "MRSM BD"
 },
 {
  "id": "igop",
  "name": "SBP Integrasi Gopeng",
  "acronym": "IGOP",
  "type": "SBP",
  "program": "SBPI",
  "jantina": "LP",
  "hot": 3,
  "kemasukan": "1,4",
  "phone": "—",
  "ads": false,
  "founded": 2003,
  "negeri": "Perak",
  "calon2021": 111,
  "purata": 2.2,
  "lat": 4.442975,
  "lng": 101.133838,
  "gps": {
   "2025": 2.17,
   "2024": 1.91,
   "2023": 2.33
  },
  "pin": "IGOP"
 },
 {
  "id": "mrsmpasirsalak",
  "name": "MRSM Pasir Salak",
  "acronym": "MRSM Pasir Salak",
  "type": "MRSM",
  "program": "Premier",
  "jantina": "LP",
  "hot": "MRSM",
  "kemasukan": "1,4",
  "phone": "BP",
  "ads": false,
  "founded": 2003,
  "negeri": "Perak",
  "calon2021": 127,
  "purata": 2.21,
  "lat": 4.204594,
  "lng": 100.964727,
  "gps": {
   "2025": 2.181,
   "2024": 1.545,
   "2023": 2.195
  },
  "pin": "MRSM PS"
 },
 {
  "id": "mrsmpengkalanhulu",
  "name": "MRSM Pengkalan Hulu",
  "acronym": "MRSM Pengkalan Hulu",
  "type": "MRSM",
  "program": "Premier",
  "jantina": "LP",
  "hot": "MRSM",
  "kemasukan": "1,4",
  "phone": "BP Weekend",
  "ads": false,
  "founded": 2008,
  "negeri": "Perak",
  "calon2021": 193,
  "purata": 2.233,
  "lat": 5.718439,
  "lng": 100.990908,
  "gps": {
   "2025": 2.171,
   "2024": 2.015,
   "2023": 2.48
  },
  "pin": "MRSM PH"
 },
 {
  "id": "mrsmparit",
  "name": "MRSM Parit",
  "acronym": "MRSM Parit",
  "type": "MRSM",
  "program": "IGCSE",
  "jantina": "LP",
  "hot": "MRSM",
  "kemasukan": "1,4",
  "phone": "SP F3,4,5",
  "ads": false,
  "founded": 2012,
  "negeri": "Perak",
  "calon2021": 158,
  "purata": 2.269,
  "lat": 4.484523,
  "lng": 100.919436,
  "gps": {
   "2025": 2.301,
   "2024": 1.896,
   "2023": 2.395
  },
  "pin": "MRSM Parit"
 },
 {
  "id": "seratas",
  "name": "SMS Raja Tun Azlan Shah",
  "acronym": "SERATAS",
  "type": "SBP",
  "program": "SMS",
  "jantina": "LP",
  "hot": 3,
  "kemasukan": "1,4",
  "phone": "—",
  "ads": false,
  "founded": 1982,
  "negeri": "Perak",
  "calon2021": 107,
  "purata": 2.318,
  "lat": 4.854343,
  "lng": 100.753341,
  "gps": {
   "2025": 2.16,
   "2024": 2.6,
   "2023": 2.31
  },
  "pin": "SERATAS"
 },
 {
  "id": "semesti",
  "name": "SMS Teluk Intan",
  "acronym": "SEMESTI",
  "type": "SBP",
  "program": "SMS",
  "jantina": "LP",
  "hot": 3,
  "kemasukan": "1,4",
  "phone": "—",
  "ads": false,
  "founded": 1980,
  "negeri": "Perak",
  "calon2021": 108,
  "purata": 2.493,
  "lat": 3.937114,
  "lng": 100.959935,
  "gps": {
   "2025": 2.58,
   "2024": 2.32,
   "2023": 2.1
  },
  "pin": "SEMESTI"
 },
 {
  "id": "mrsmsultanazlanshah",
  "name": "MRSM Sultan Azlan Shah",
  "acronym": "MRSM Sultan Azlan Shah",
  "type": "MRSM",
  "program": "Premier",
  "jantina": "LP",
  "hot": "MRSM",
  "kemasukan": "1,4",
  "phone": "BP",
  "ads": false,
  "founded": 2015,
  "negeri": "Perak",
  "calon2021": 148,
  "purata": 2.504,
  "lat": 4.85861,
  "lng": 100.902741,
  "gps": {
   "2025": 1.943,
   "2024": 1.711,
   "2023": 2.365
  },
  "pin": "MRSM SAS"
 },
 {
  "id": "trolak",
  "name": "MRSM FELDA",
  "acronym": "Trolak",
  "type": "MRSM",
  "program": "Premier/UA",
  "jantina": "LP",
  "hot": "MRSM",
  "kemasukan": "1,4",
  "phone": "—",
  "ads": false,
  "founded": 2008,
  "negeri": "Perak",
  "calon2021": 196,
  "purata": 2.559,
  "lat": 3.922843,
  "lng": 101.348188,
  "gps": {
   "2025": 2.645,
   "2024": 2.03,
   "2023": 2.636
  },
  "pin": "Trolak"
 },
 {
  "id": "sabda",
  "name": "SMS Bagan Datoh",
  "acronym": "SABDA",
  "type": "SBP",
  "program": "SMS",
  "jantina": "LP",
  "hot": 4,
  "kemasukan": "1,4",
  "phone": "—",
  "ads": false,
  "founded": 2009,
  "negeri": "Perak",
  "calon2021": 115,
  "purata": 2.669,
  "lat": 3.974189,
  "lng": 100.78697,
  "gps": {
   "2025": 3.04,
   "2024": 2.47,
   "2023": 2.58
  },
  "pin": "SABDA"
 },
 {
  "id": "mrsmlenggong",
  "name": "MRSM Lenggong",
  "acronym": "MRSM Lenggong",
  "type": "MRSM",
  "program": "STEM Excel",
  "jantina": "LP",
  "hot": "MRSM",
  "kemasukan": "1,4",
  "phone": "BP",
  "ads": false,
  "founded": 2001,
  "negeri": "Perak",
  "calon2021": 146,
  "purata": 2.723,
  "lat": 5.035636,
  "lng": 100.954846,
  "gps": {
   "2025": 2.396,
   "2024": 1.983,
   "2023": 2.619
  },
  "pin": "MRSM Lenggong"
 },
 {
  "id": "mrsmgerik",
  "name": "MRSM Gerik",
  "acronym": "MRSM Gerik",
  "type": "MRSM",
  "program": "Premier",
  "jantina": "LP",
  "hot": "MRSM",
  "kemasukan": "1,4",
  "phone": "BP",
  "ads": false,
  "founded": 1993,
  "negeri": "Perak",
  "calon2021": 91,
  "purata": 2.728,
  "lat": 5.385271,
  "lng": 101.056522,
  "gps": {
   "2025": 2.456,
   "2024": 2.244,
   "2023": 2.9
  },
  "pin": "MRSM Gerik"
 },
 {
  "id": "ssp",
  "name": "Sekolah Seri Puteri",
  "acronym": "SSP",
  "type": "SBP",
  "program": "SMS",
  "jantina": "P",
  "hot": 1,
  "kemasukan": "1,4",
  "phone": "iPad",
  "ads": true,
  "founded": 1968,
  "negeri": "Selangor",
  "calon2021": 167,
  "purata": 1.34,
  "lat": 2.911255,
  "lng": 101.664672,
  "gps": {
   "2025": 1.78,
   "2024": 1.24,
   "2023": 1.28
  },
  "pin": "SSP"
 },
 {
  "id": "integomb",
  "name": "SBP Integrasi Gombak",
  "acronym": "Integomb",
  "type": "SBP",
  "program": "SBPI",
  "jantina": "LP",
  "hot": 1,
  "kemasukan": "1,4",
  "phone": "—",
  "ads": false,
  "founded": 2003,
  "negeri": "Selangor",
  "calon2021": 120,
  "purata": 1.368,
  "lat": 3.245385,
  "lng": 101.722757,
  "gps": {
   "2025": 1.8,
   "2024": 0.93,
   "2023": 1.38
  },
  "pin": "Integomb"
 },
 {
  "id": "semashur",
  "name": "SMS Hulu Selangor",
  "acronym": "SEMASHUR",
  "type": "SBP",
  "program": "SMS",
  "jantina": "LP",
  "hot": 2,
  "kemasukan": "1,4",
  "phone": "—",
  "ads": false,
  "founded": 2000,
  "negeri": "Selangor",
  "calon2021": 142,
  "purata": 1.637,
  "lat": 3.409678,
  "lng": 101.661791,
  "gps": {
   "2025": 1.75,
   "2024": 1.32,
   "2023": 1.56
  },
  "pin": "SEMASHUR"
 },
 {
  "id": "sepintar",
  "name": "SBP Integrasi Rawang",
  "acronym": "SEPINTAR",
  "type": "SBP",
  "program": "TMUA SBPI",
  "jantina": "LP",
  "hot": 1,
  "kemasukan": "1,4",
  "phone": "—",
  "ads": false,
  "founded": 2002,
  "negeri": "Selangor",
  "calon2021": 105,
  "purata": 1.65,
  "lat": 3.298874,
  "lng": 101.490279,
  "gps": {
   "2025": 1.61,
   "2024": 1.16,
   "2023": 1.62
  },
  "pin": "SEPINTAR"
 },
 {
  "id": "smapkajang",
  "name": "SMAP Kajang - Agama",
  "acronym": "SMAP KAJANG",
  "type": "SBP",
  "program": "SMAP",
  "jantina": "LP",
  "hot": 2,
  "kemasukan": "1,4",
  "phone": "—",
  "ads": false,
  "founded": 1989,
  "negeri": "Selangor",
  "calon2021": 148,
  "purata": 1.803,
  "lat": 3.020515,
  "lng": 101.780376,
  "gps": {
   "2025": 1.96,
   "2024": 1.48,
   "2023": 1.62
  },
  "pin": "SMAP KAJANG"
 },
 {
  "id": "kusess",
  "name": "SMS Kuala Selangor",
  "acronym": "KUSESS",
  "type": "SBP",
  "program": "SMS",
  "jantina": "LP",
  "hot": 2,
  "kemasukan": "1,4",
  "phone": "—",
  "ads": false,
  "founded": 1996,
  "negeri": "Selangor",
  "calon2021": 146,
  "purata": 1.822,
  "lat": 3.323076,
  "lng": 101.257812,
  "gps": {
   "2025": 2.16,
   "2024": 1.72,
   "2023": 1.68
  },
  "pin": "KUSESS"
 },
 {
  "id": "basis",
  "name": "SMS Banting",
  "acronym": "BASIS",
  "type": "SBP",
  "program": "SMS",
  "jantina": "LP",
  "hot": 3,
  "kemasukan": "1,4",
  "phone": "—",
  "ads": false,
  "founded": 2011,
  "negeri": "Selangor",
  "calon2021": 166,
  "purata": 1.917,
  "lat": 2.828045,
  "lng": 101.445651,
  "gps": {
   "2025": 1.92,
   "2024": 1.5,
   "2023": 1.85
  },
  "pin": "BASIS"
 },
 {
  "id": "mrsmkualakububharu",
  "name": "MRSM Kuala Kubu Bharu",
  "acronym": "MRSM Kuala Kubu Bharu",
  "type": "MRSM",
  "program": "IGCSE",
  "jantina": "LP",
  "hot": "MRSM",
  "kemasukan": "1,4",
  "phone": "SP F2>",
  "ads": false,
  "founded": 2002,
  "negeri": "Selangor",
  "calon2021": 131,
  "purata": 1.949,
  "lat": 3.548647,
  "lng": 101.676152,
  "gps": {
   "2025": 1.284,
   "2024": 1.261,
   "2023": 1.903
  },
  "pin": "MRSM KKB"
 },
 {
  "id": "mrsmsungaibesar",
  "name": "MRSM Sungai Besar",
  "acronym": "MRSM Sungai Besar",
  "type": "MRSM",
  "program": "U. Albab",
  "jantina": "LP",
  "hot": "MRSM",
  "kemasukan": "1,4",
  "phone": "BP",
  "ads": false,
  "founded": 2016,
  "negeri": "Selangor",
  "calon2021": 158,
  "purata": 2.095,
  "lat": 3.709541,
  "lng": 101.134707,
  "gps": {
   "2025": 2.074,
   "2024": 1.489,
   "2023": 2.038
  },
  "pin": "MRSM SB"
 },
 {
  "id": "intersaber",
  "name": "SBP Integrasi Sabak Bernam",
  "acronym": "INTERSABER",
  "type": "SBP",
  "program": "SBPI",
  "jantina": "LP",
  "hot": 3,
  "kemasukan": "1,4",
  "phone": "—",
  "ads": false,
  "founded": 2002,
  "negeri": "Selangor",
  "calon2021": 110,
  "purata": 2.255,
  "lat": 3.805059,
  "lng": 100.815928,
  "gps": {
   "2025": 2.6,
   "2024": 1.94,
   "2023": 2.21
  },
  "pin": "INTERSABER"
 },
 {
  "id": "seseri",
  "name": "SMS Seri Puteri",
  "acronym": "SESERI",
  "type": "SBP",
  "program": "SMS",
  "jantina": "P",
  "hot": 2,
  "kemasukan": "1,4",
  "phone": "—",
  "ads": false,
  "founded": 2003,
  "negeri": "Kuala Lumpur",
  "calon2021": 88,
  "purata": 1.706,
  "lat": 3.171128,
  "lng": 101.688631,
  "gps": {
   "2025": 2.33,
   "2024": 1.51,
   "2023": 1.78
  },
  "pin": "SESERI"
 },
 {
  "id": "smss",
  "name": "SMS Selangor",
  "acronym": "SMSS",
  "type": "SBP",
  "program": "SMS",
  "jantina": "LP",
  "hot": 2,
  "kemasukan": "1,4",
  "phone": "—",
  "ads": false,
  "founded": 1973,
  "negeri": "Kuala Lumpur",
  "calon2021": 115,
  "purata": 1.877,
  "lat": 3.104786,
  "lng": 101.719988,
  "gps": {
   "2025": 2.42,
   "2024": 1.68,
   "2023": 1.6
  },
  "pin": "SMSS"
 }
]